{
  "type": "FeatureCollection",
  "features": [
    {
      "type": "Feature",
      "properties": {
        "2000": 20,
        "2002": 30,
        "2004": 26,
        "2006": 22,
        "2008": 100,
        "2010": 40,
        "2012": 32,
        "2014": 28,
        "Location": "Queens",
        "Attendance Sum": 298
      },
      "geometry": {
        "type": "Point",
        "coordinates": [
          -73.8283132,
          40.7135078
        ]
      }
    },
    {
      "type": "Feature",
      "properties": {
        "2000": 95,
        "2002": 120,
        "2004": 180,
        "2006": 400,
        "2008": 0,
        "2010": 100,
        "2012": 150,
        "2014": 80,
        "Location": "Bronx",
        "Attendance Sum": 1125
      },
      "geometry": {
        "type": "Point",
        "coordinates": [
          -73.8785937,
          40.8466508
        ]
      }
    },
    {
      "type": "Feature",
      "properties": {
        "2000": 180,
        "2002": 250,
        "2004": 440,
        "2006": 550,
        "2008": 730,
        "2010": 800,
        "2012": 930,
        "2014": 980,
        "Location": "Staten Island",
        "Attendance Sum": 4860
      },
      "geometry": {
        "type": "Point",
        "coordinates": [
          -74.1496048,
          40.5834557
        ]
      }
    },
    {
      "type": "Feature",
      "properties": {
        "2000": 708,
        "2002": 58,
        "2004": 680,
        "2006": 975,
        "2008": 333,
        "2010": 500,
        "2012": 450,
        "2014": 670,
        "Location": "Manhattan",
        "Attendance Sum": 4374
      },
      "geometry": {
        "type": "Point",
        "coordinates": [
          -73.9598939,
          40.7896239
        ]
      }
    },
    {
      "type": "Feature",
      "properties": {
        "2000": 375,
        "2002": 280,
        "2004": 200,
        "2006": 0,
        "2008": 370,
        "2010": 430,
        "2012": 270,
        "2014": 530,
        "Location": "jersey city",
        "Attendance Sum": 2455
      },
      "geometry": {
        "type": "Point",
        "coordinates": [
          -74.047455,
          40.7215682
        ]
      }
    },
    {
      "type": "Feature",
      "properties": {
        "2000": 210,
        "2002": 320,
        "2004": 280,
        "2006": 200,
        "2008": 310,
        "2010": 390,
        "2012": 0,
        "2014": 400,
        "Location": "Elmont",
        "Attendance Sum": 2110
      },
      "geometry": {
        "type": "Point",
        "coordinates": [
          -73.7093041,
          40.7076444
        ]
      }
    },
    {
      "type": "Feature",
      "properties": {
        "2000": 225,
        "2002": 320,
        "2004": 280,
        "2006": 200,
        "2008": 310,
        "2010": 400,
        "2012": 410,
        "2014": 390,
        "Location": "union city",
        "Attendance Sum": 2535
      },
      "geometry": {
        "type": "Point",
        "coordinates": [
          -122.0215737,
          37.5872576
        ]
      }
    },
    {
      "type": "Feature",
      "properties": {
        "2000": 0,
        "2002": 810,
        "2004": 560,
        "2006": 850,
        "2008": 1250,
        "2010": 1500,
        "2012": 1300,
        "2014": 800,
        "Location": "Hoboken",
        "Attendance Sum": 7070
      },
      "geometry": {
        "type": "Point",
        "coordinates": [
          -74.0323752,
          40.7433066
        ]
      }
    },
    {
      "type": "Feature",
      "properties": {
        "2000": 380,
        "2002": 0,
        "2004": 325,
        "2006": 520,
        "2008": 950,
        "2010": 1020,
        "2012": 600,
        "2014": 800,
        "Location": "Harison",
        "Attendance Sum": 4595
      },
      "geometry": {
        "type": "Point",
        "coordinates": [
          76.7825615,
          30.7598881
        ]
      }
    },
    {
      "type": "Feature",
      "properties": {
        "2000": 0,
        "2002": 775,
        "2004": 495,
        "2006": 475,
        "2008": 75,
        "2010": 200,
        "2012": 470,
        "2014": 590,
        "Location": "Elizabeth",
        "Attendance Sum": 3080
      },
      "geometry": {
        "type": "Point",
        "coordinates": [
          -74.2107006,
          40.6639916
        ]
      }
    },
    {
      "type": "Feature",
      "properties": {
        "2000": 175,
        "2002": 500,
        "2004": 520,
        "2006": 626,
        "2008": 400,
        "2010": 550,
        "2012": 760,
        "2014": 0,
        "Location": "Union",
        "Attendance Sum": 3531
      },
      "geometry": {
        "type": "Point",
        "coordinates": [
          -89.2504793,
          37.4616454
        ]
      }
    },
    {
      "type": "Feature",
      "properties": {
        "2000": 0,
        "2002": 25,
        "2004": 20,
        "2006": 23,
        "2008": 26,
        "2010": 50,
        "2012": 77,
        "2014": 100,
        "Location": "Orange",
        "Attendance Sum": 321
      },
      "geometry": {
        "type": "Point",
        "coordinates": [
          -117.8704931,
          33.7500378
        ]
      }
    },
    {
      "type": "Feature",
      "properties": {
        "2000": 0,
        "2002": 20,
        "2004": 22,
        "2006": 23,
        "2008": 21,
        "2010": 30,
        "2012": 46,
        "2014": 80,
        "Location": "Hillside",
        "Attendance Sum": 242
      },
      "geometry": {
        "type": "Point",
        "coordinates": [
          -87.9028398,
          41.8778084
        ]
      }
    },
    {
      "type": "Feature",
      "properties": {
        "2000": 0,
        "2002": 23,
        "2004": 26,
        "2006": 25,
        "2008": 26,
        "2010": 40,
        "2012": 45,
        "2014": 50,
        "Location": "Edison",
        "Attendance Sum": 235
      },
      "geometry": {
        "type": "Point",
        "coordinates": [
          -74.4113926,
          40.518157
        ]
      }
    },
    {
      "type": "Feature",
      "properties": {
        "2000": 0,
        "2002": 10,
        "2004": 30,
        "2006": 29,
        "2008": 26,
        "2010": 35,
        "2012": 55,
        "2014": 40,
        "Location": "Brooklyn",
        "Attendance Sum": 225
      },
      "geometry": {
        "type": "Point",
        "coordinates": [
          -73.9497211,
          40.6526006
        ]
      }
    },
    {
      "type": "Feature",
      "properties": {
        "2000": 0,
        "2002": 25,
        "2004": 27,
        "2006": 28,
        "2008": 27,
        "2010": 30,
        "2012": 35,
        "2014": 29,
        "Location": "Bayonne",
        "Attendance Sum": 201
      },
      "geometry": {
        "type": "Point",
        "coordinates": [
          -1.4736657,
          43.4945144
        ]
      }
    },
    {
      "type": "Feature",
      "properties": {
        "2000": 0,
        "2002": 13,
        "2004": 20,
        "2006": 23,
        "2008": 22,
        "2010": 25,
        "2012": 30,
        "2014": 50,
        "Location": "Middlesex",
        "Attendance Sum": 183
      },
      "geometry": {
        "type": "Point",
        "coordinates": [
          -0.253779139,
          51.5460558
        ]
      }
    }
  ]
}